{
"type": "FeatureCollection",
"name": "jacobs-us-offices",
"crs": { "type": "name", "properties": { "name": "urn:ogc:def:crs:OGC:1.3:CRS84" } },
"features": [
{ "type": "Feature", "properties": { "office_name": "Birmingham", "address": "2112 Eleventh Avenue South Suite 320 Birmingham, AL 35205 United States", "country": "United States", "iso": "US" }, "geometry": { "type": "Point", "coordinates": [ -86.794389033128695, 33.501753985649799 ] } },
{ "type": "Feature", "properties": { "office_name": "Mobile", "address": "11 North Water Street Suite 10290 Mobile, AL 36602 United States", "country": "United States", "iso": "US" }, "geometry": { "type": "Point", "coordinates": [ -88.040377967078399, 30.6931869828576 ] } },
{ "type": "Feature", "properties": { "office_name": "Anchorage", "address": "949 E. 36th Avenue Suite 500 Anchorage, AK 99508 United States", "country": "United States", "iso": "US" }, "geometry": { "type": "Point", "coordinates": [ -149.864846016217001, 61.1900239862455 ] } },
{ "type": "Feature", "properties": { "office_name": "Phoenix", "address": "101 N. 1st Avenue Suite 2600 Phoenix, AZ 85003 United States", "country": "United States", "iso": "US" }, "geometry": { "type": "Point", "coordinates": [ -112.074697004666007, 33.449838991951999 ] } },
{ "type": "Feature", "properties": { "office_name": "Tempe", "address": "1501 W. Fountainhead Parkway Suite 401 Tempe, AZ 85282 United States", "country": "United States", "iso": "US" }, "geometry": { "type": "Point", "coordinates": [ -111.962535992246998, 33.4029940019376 ] } },
{ "type": "Feature", "properties": { "office_name": "Little Rock", "address": "10816 Executive Center Drive Suite 300 Little Rock, AR 72211 United States", "country": "United States", "iso": "US" }, "geometry": { "type": "Point", "coordinates": [ -92.398631671629204, 34.739816237585501 ] } },
{ "type": "Feature", "properties": { "office_name": "Bakersfield", "address": "5201 California Avenue Suite 320 Bakersfield, CA 93309 United States", "country": "United States", "iso": "US" }, "geometry": { "type": "Point", "coordinates": [ -119.059789962628997, 35.359205019361902 ] } },
{ "type": "Feature", "properties": { "office_name": "Irvine", "address": "2600 Michelson Drive Suite 500 Irvine, CA 92612 United States", "country": "United States", "iso": "US" }, "geometry": { "type": "Point", "coordinates": [ -117.850237999973004, 33.6737879801885 ] } },
{ "type": "Feature", "properties": { "office_name": "Los Angeles", "address": "1000 Wilshire Boulevard Suite 2100 Los Angeles, CA 90017 United States", "country": "United States", "iso": "US" }, "geometry": { "type": "Point", "coordinates": [ -118.260802979703001, 34.050850995840001 ] } },
{ "type": "Feature", "properties": { "office_name": "Mountain View", "address": "Building 227 Room 117A Naval Air Station Moffett Field P.O. Box 366 Mountain View, CA 94035 United States", "country": "United States", "iso": "US" }, "geometry": { "type": "Point", "coordinates": [ -122.040465, 37.419440000000101 ] } },
{ "type": "Feature", "properties": { "office_name": "Ontario", "address": "3257 E. Guasti Road Suite 120 Ontario, CA 91761 United States", "country": "United States", "iso": "US" }, "geometry": { "type": "Point", "coordinates": [ -117.580306016644997, 34.065741991654797 ] } },
{ "type": "Feature", "properties": { "office_name": "Redding", "address": "2525 Airpark Drive Redding, CA 96001 United States", "country": "United States", "iso": "US" }, "geometry": { "type": "Point", "coordinates": [ -122.403659039364996, 40.571864000787897 ] } },
{ "type": "Feature", "properties": { "office_name": "Riverside", "address": "1770 Iowa Avenue Suite 200 Riverside, CA 92507 United States", "country": "United States", "iso": "US" }, "geometry": { "type": "Point", "coordinates": [ -117.339166038361995, 33.9951690072171 ] } },
{ "type": "Feature", "properties": { "office_name": "San Diego", "address": "401 B Street Suite 1560 San Diego, CA 92101 United States", "country": "United States", "iso": "US" }, "geometry": { "type": "Point", "coordinates": [ -117.160662010853002, 32.717378001062798 ] } },
{ "type": "Feature", "properties": { "office_name": "San Francisco", "address": "4 Embarcadero Center Suite 3800 San Francisco, CA 94111 United States", "country": "United States", "iso": "US" }, "geometry": { "type": "Point", "coordinates": [ -122.396236025912998, 37.795534007156 ] } },
{ "type": "Feature", "properties": { "office_name": "Thousand Oaks", "address": "325 E. Hillcrest Drive Suite 125 Thousand Oaks, CA 91360 United States", "country": "United States", "iso": "US" }, "geometry": { "type": "Point", "coordinates": [ -118.871812037598005, 34.182117005895002 ] } },
{ "type": "Feature", "properties": { "office_name": "Colorado Springs", "address": "5555 Tech Center Drive Suite 212 Colorado Springs, CO 80919 United States", "country": "United States", "iso": "US" }, "geometry": { "type": "Point", "coordinates": [ -104.827186020476006, 38.912336984142797 ] } },
{ "type": "Feature", "properties": { "office_name": "Englewood", "address": "9191 Jamaica Street Englewood, CO 80112 United States", "country": "United States", "iso": "US" }, "geometry": { "type": "Point", "coordinates": [ -104.867819978328001, 39.549116999632297 ] } },
{ "type": "Feature", "properties": { "office_name": "Wethersfield", "address": "100 Great Meadow Road Suite 707 Wethersfield, CT 06109 United States", "country": "United States", "iso": "US" }, "geometry": { "type": "Point", "coordinates": [ -72.643668992744594, 41.713932003692697 ] } },
{ "type": "Feature", "properties": { "office_name": "Cape Canaveral", "address": "445 Challenger Road Suite 130 Cape Canaveral, FL 32920 United States", "country": "United States", "iso": "US" }, "geometry": { "type": "Point", "coordinates": [ -80.612598983856202, 28.4038409955817 ] } },
{ "type": "Feature", "properties": { "office_name": "Fort Walton Beach", "address": "1020 Titan Court Fort Walton Beach, FL 32547 United States", "country": "United States", "iso": "US" }, "geometry": { "type": "Point", "coordinates": [ -86.633567971472402, 30.449756020889499 ] } },
{ "type": "Feature", "properties": { "office_name": "Gainesville", "address": "643 SW 4th Street Suite 400 Gainesville, FL 32601 United States", "country": "United States", "iso": "US" }, "geometry": { "type": "Point", "coordinates": [ -82.328828976401894, 29.646140698046899 ] } },
{ "type": "Feature", "properties": { "office_name": "Jacksonville", "address": "200 W. Forsyth Street Suite 1520 Jacksonville, FL 32202", "country": "United States", "iso": "US" }, "geometry": { "type": "Point", "coordinates": [ -81.660877010627104, 30.327300983633499 ] } },
{ "type": "Feature", "properties": { "office_name": "Naples", "address": "5801 Pelican Bay Boulevard Suite 505 Naples, FL 34108 United States", "country": "United States", "iso": "US" }, "geometry": { "type": "Point", "coordinates": [ -81.801704970096097, 26.216827987794201 ] } },
{ "type": "Feature", "properties": { "office_name": "Orlando", "address": "12633 Challenger Parkway Suite 270 Orlando, FL 32826 United States", "country": "United States", "iso": "US" }, "geometry": { "type": "Point", "coordinates": [ -81.202608021536193, 28.574193999438599 ] } },
{ "type": "Feature", "properties": { "office_name": "Palm Beach Gardens", "address": "3300 PGA Boulevard Suite 780 Palm Beach Gardens, FL 33410 United States", "country": "United States", "iso": "US" }, "geometry": { "type": "Point", "coordinates": [ -80.087983040180006, 26.8445249958171 ] } },
{ "type": "Feature", "properties": { "office_name": "Tallahassee", "address": "3606 Maclay Boulevard Suite 201 Tallahassee, FL 32312 United States", "country": "United States", "iso": "US" }, "geometry": { "type": "Point", "coordinates": [ -84.252142964048403, 30.5116119936628 ] } },
{ "type": "Feature", "properties": { "office_name": "Tampa", "address": "201 N. Franklin Street Suite 1400 Tampa, FL 33602 United States", "country": "United States", "iso": "US" }, "geometry": { "type": "Point", "coordinates": [ -82.456995035734494, 27.9467109814038 ] } },
{ "type": "Feature", "properties": { "office_name": "West Palm Beach", "address": "1400 Centrepark Boulevard Suite 960 West Palm Beach, FL 33401 United States", "country": "United States", "iso": "US" }, "geometry": { "type": "Point", "coordinates": [ -80.072363028336497, 26.693144010702699 ] } },
{ "type": "Feature", "properties": { "office_name": "Albany", "address": "217 Johnson Road Suite C Albany, GA 31705 United States", "country": "United States", "iso": "US" }, "geometry": { "type": "Point", "coordinates": [ -84.091415025336403, 31.571169002713201 ] } },
{ "type": "Feature", "properties": { "office_name": "McDonough", "address": "46 Liberty Industrial Parkway McDonough, GA 30253 United States", "country": "United States", "iso": "US" }, "geometry": { "type": "Point", "coordinates": [ -84.165115518129099, 33.407131529419303 ] } },
{ "type": "Feature", "properties": { "office_name": "Boise", "address": "999 West Main Street Suite 1200 Boise, ID 83702 United States", "country": "United States", "iso": "US" }, "geometry": { "type": "Point", "coordinates": [ -116.205587981364005, 43.616355007335699 ] } },
{ "type": "Feature", "properties": { "office_name": "Chicago", "address": "525 West Monroe Suite 1600 Chicago, IL 60661 United States", "country": "United States", "iso": "US" }, "geometry": { "type": "Point", "coordinates": [ -87.640472002159996, 41.880267016533899 ] } },
{ "type": "Feature", "properties": { "office_name": "Fort Wayne", "address": "2020 E. Washington Boulevard Suite 100 Fort Wayne, IN 46803 United States", "country": "United States", "iso": "US" }, "geometry": { "type": "Point", "coordinates": [ -85.110598963271201, 41.078468994739701 ] } },
{ "type": "Feature", "properties": { "office_name": "West Des Moines", "address": "4601 Westown Parkway Suite 216 West Des Moines, IA 50266 United States", "country": "United States", "iso": "US" }, "geometry": { "type": "Point", "coordinates": [ -93.766146969872594, 41.596248993462098 ] } },
{ "type": "Feature", "properties": { "office_name": "Lawrence", "address": "4601 West 6th Street Suite 102 Lawrence, KS 66049 United States", "country": "United States", "iso": "US" }, "geometry": { "type": "Point", "coordinates": [ -95.300237254845101, 38.970967516755202 ] } },
{ "type": "Feature", "properties": { "office_name": "Louisville", "address": "400 West Market Street Suite 2550 Louisville, KY 40202 United States", "country": "United States", "iso": "US" }, "geometry": { "type": "Point", "coordinates": [ -85.757202024458493, 38.254928015291199 ] } },
{ "type": "Feature", "properties": { "office_name": "Baton Rouge", "address": "100 North Street Suite 901 Baton Rouge, LA 70802 United States", "country": "United States", "iso": "US" }, "geometry": { "type": "Point", "coordinates": [ -91.189982942859601, 30.452312249900899 ] } },
{ "type": "Feature", "properties": { "office_name": "Aberdeen", "address": "400 Hickory Drive Suite 403 Aberdeen, MD 21005 United States", "country": "United States", "iso": "US" }, "geometry": { "type": "Point", "coordinates": [ -76.186095967975504, 39.495563008587602 ] } },
{ "type": "Feature", "properties": { "office_name": "Annapolis", "address": "2701 Technology Drive Annapolis, MD United States", "country": "United States", "iso": "US" }, "geometry": { "type": "Point", "coordinates": [ -76.490139999999897, 38.97678 ] } },
{ "type": "Feature", "properties": { "office_name": "Columbia", "address": "9861 Broken Land Parkway Suite 156 Columbia, MD 21046 United States", "country": "United States", "iso": "US" }, "geometry": { "type": "Point", "coordinates": [ -76.850957999402198, 39.1831600056883 ] } },
{ "type": "Feature", "properties": { "office_name": "Hanover", "address": "7740 Milestone Parkway Suite 400 Hanover, MD 21076 United States", "country": "United States", "iso": "US" }, "geometry": { "type": "Point", "coordinates": [ -76.748403989127098, 39.1513879826066 ] } },
{ "type": "Feature", "properties": { "office_name": "Hanover", "address": "7455 New Ridge Road Hanover, MD 21076 United States", "country": "United States", "iso": "US" }, "geometry": { "type": "Point", "coordinates": [ -76.704598989665797, 39.170332005792503 ] } },
{ "type": "Feature", "properties": { "office_name": "Silver Spring", "address": "1100 Wayne Avenue Suite 1150 Silver Spring, MD 20910 United States", "country": "United States", "iso": "US" }, "geometry": { "type": "Point", "coordinates": [ -77.028482014792303, 38.994229980276103 ] } },
{ "type": "Feature", "properties": { "office_name": "Boston", "address": "120 St. James Avenue 5th Floor Boston, MA 02116 United States", "country": "United States", "iso": "US" }, "geometry": { "type": "Point", "coordinates": [ -71.075131181196795, 42.349227332672697 ] } },
{ "type": "Feature", "properties": { "office_name": "North Andover", "address": "250 Clark Street North Andover, MA 01845 United States", "country": "United States", "iso": "US" }, "geometry": { "type": "Point", "coordinates": [ -71.121845623069404, 42.720064061097801 ] } },
{ "type": "Feature", "properties": { "office_name": "Battle Creek", "address": "70 West Michigan Avenue Suite 750 Battle Creek, MI 49017 United States", "country": "United States", "iso": "US" }, "geometry": { "type": "Point", "coordinates": [ -85.183892001017895, 42.3213650064177 ] } },
{ "type": "Feature", "properties": { "office_name": "Shelby Township", "address": "51504 Danview Technology Court Shelby Charter Township, MI 48315 United States", "country": "United States", "iso": "US" }, "geometry": { "type": "Point", "coordinates": [ -83.000351992901599, 42.673714986384702 ] } },
{ "type": "Feature", "properties": { "office_name": "Mendota Heights", "address": "1295 Northland Drive Suite 200 Mendota Heights, MN 55120 United States", "country": "United States", "iso": "US" }, "geometry": { "type": "Point", "coordinates": [ -93.161515534464996, 44.864192947216402 ] } },
{ "type": "Feature", "properties": { "office_name": "Kansas City", "address": "2300 Main Street Suite 325 Kansas City, MO 64108 United States", "country": "United States", "iso": "US" }, "geometry": { "type": "Point", "coordinates": [ -94.584947011705907, 39.085825993253799 ] } },
{ "type": "Feature", "properties": { "office_name": "Omaha", "address": "222 South 15th Street Suite 1408-S Omaha, NE 68102 United States", "country": "United States", "iso": "US" }, "geometry": { "type": "Point", "coordinates": [ -95.936309963435093, 41.258120001879597 ] } },
{ "type": "Feature", "properties": { "office_name": "Henderson", "address": "2485 Village View Drive Suite 350 Henderson, NV 89074 United States", "country": "United States", "iso": "US" }, "geometry": { "type": "Point", "coordinates": [ -115.096607960339995, 36.022311000163803 ] } },
{ "type": "Feature", "properties": { "office_name": "Reno", "address": "50 West Liberty Street Suite 205 Reno, NV 89501 United States", "country": "United States", "iso": "US" }, "geometry": { "type": "Point", "coordinates": [ -119.811752037988995, 39.521421012245803 ] } },
{ "type": "Feature", "properties": { "office_name": "Bedford", "address": "Two Executive Park Drive Bedford, NH 03110 United States", "country": "United States", "iso": "US" }, "geometry": { "type": "Point", "coordinates": [ -71.473374008887205, 42.946676985801503 ] } },
{ "type": "Feature", "properties": { "office_name": "Clark", "address": "100 Walnut Avenue Suite 604 Clark, NJ 07066 United States", "country": "United States", "iso": "US" }, "geometry": { "type": "Point", "coordinates": [ -74.303419009923701, 40.629954990292902 ] } },
{ "type": "Feature", "properties": { "office_name": "Albuquerque", "address": "3721 Rutledge Road NE Suite B-1 Albuquerque, NM 87109 United States", "country": "United States", "iso": "US" }, "geometry": { "type": "Point", "coordinates": [ -106.602878964786996, 35.165246983601399 ] } },
{ "type": "Feature", "properties": { "office_name": "Garden City", "address": "1305 Franklin Avenue Garden City, NY 11530 United States", "country": "United States", "iso": "US" }, "geometry": { "type": "Point", "coordinates": [ -73.637330119329206, 40.734844114973598 ] } },
{ "type": "Feature", "properties": { "office_name": "Syracuse", "address": "499 South Warren Street Suite 509 Syracuse, NY 13202 United States", "country": "United States", "iso": "US" }, "geometry": { "type": "Point", "coordinates": [ -76.150627441774404, 43.045895501526999 ] } },
{ "type": "Feature", "properties": { "office_name": "Cary", "address": "111 Corning Road Suite 200 Cary, NC 27518 United States", "country": "United States", "iso": "US" }, "geometry": { "type": "Point", "coordinates": [ -78.734021027914295, 35.752056984115399 ] } },
{ "type": "Feature", "properties": { "office_name": "Southern Pines", "address": "655 SE Broad Street Southern Pines, NC 28387 United States", "country": "United States", "iso": "US" }, "geometry": { "type": "Point", "coordinates": [ -79.398713996353905, 35.168761012688599 ] } },
{ "type": "Feature", "properties": { "office_name": "Beavercreek", "address": "1415 Research Park Drive Beavercreek, OH 45432 United States", "country": "United States", "iso": "US" }, "geometry": { "type": "Point", "coordinates": [ -84.068136300923399, 39.731881674254304 ] } },
{ "type": "Feature", "properties": { "office_name": "Cleveland", "address": "1001 Lakeside Avenue Suite 1420 Cleveland, OH 44114 United States", "country": "United States", "iso": "US" }, "geometry": { "type": "Point", "coordinates": [ -81.690760004190196, 41.506824983054202 ] } },
{ "type": "Feature", "properties": { "office_name": "Oklahoma City", "address": "3600 NW 138th Street Suite 203 Oklahoma City, OK 73134 United States", "country": "United States", "iso": "US" }, "geometry": { "type": "Point", "coordinates": [ -97.5825849816122, 35.611292014648797 ] } },
{ "type": "Feature", "properties": { "office_name": "Bend", "address": "377 SW Century Drive Suite 201 Bend, OR 97702 United States", "country": "United States", "iso": "US" }, "geometry": { "type": "Point", "coordinates": [ -121.331711020941, 44.045726002215297 ] } },
{ "type": "Feature", "properties": { "office_name": "Portland", "address": "2020 SW Fourth Avenue 3rd Floor Portland, OR 97201 United States", "country": "United States", "iso": "US" }, "geometry": { "type": "Point", "coordinates": [ -122.681328022238006, 45.508430006684897 ] } },
{ "type": "Feature", "properties": { "office_name": "Conshohocken", "address": "Three Tower Bridge 2 Ash Street Suite 3000 Conshohocken, PA 19428 United States", "country": "United States", "iso": "US" }, "geometry": { "type": "Point", "coordinates": [ -75.305085021678906, 40.070143980006698 ] } },
{ "type": "Feature", "properties": { "office_name": "Philadelphia", "address": "2301 Chestnut Street Philadelphia, PA 19103 United States", "country": "United States", "iso": "US" }, "geometry": { "type": "Point", "coordinates": [ -75.1786229737003, 39.9529319908251 ] } },
{ "type": "Feature", "properties": { "office_name": "Portsmouth", "address": "207 Highpoint Avenue Portsmouth, RI 02871 United States", "country": "United States", "iso": "US" }, "geometry": { "type": "Point", "coordinates": [ -71.258930978951497, 41.596071003748101 ] } },
{ "type": "Feature", "properties": { "office_name": "Charleston111 Springhall Drive (", "address": "Goose Creek) Charleston, SC 29445 United States", "country": "United States", "iso": "US" }, "geometry": { "type": "Point", "coordinates": [ -80.05679, 33.01475 ] } },
{ "type": "Feature", "properties": { "office_name": "North Charleston", "address": "4000 Faber Place Drive Suite 210 North Charleston, SC 29405 United States", "country": "United States", "iso": "US" }, "geometry": { "type": "Point", "coordinates": [ -80.019870521510001, 32.845312791338799 ] } },
{ "type": "Feature", "properties": { "office_name": "Chattanooga", "address": "631 Broad Street Suite 300 Chattanooga, TN, 37402 United States", "country": "United States", "iso": "US" }, "geometry": { "type": "Point", "coordinates": [ -85.311229035868905, 35.048744019609302 ] } },
{ "type": "Feature", "properties": { "office_name": "Nashville", "address": "1801 West End Avenue Suite 450 Nashville, TN 37203 United States", "country": "United States", "iso": "US" }, "geometry": { "type": "Point", "coordinates": [ -86.796044961920003, 36.152536983672803 ] } },
{ "type": "Feature", "properties": { "office_name": "Tullahoma", "address": "600 William Northern Boulevard Tullahoma, TN 37388 United States", "country": "United States", "iso": "US" }, "geometry": { "type": "Point", "coordinates": [ -86.237310984282402, 35.380059990743199 ] } },
{ "type": "Feature", "properties": { "office_name": "Austin", "address": "2705 Bee Cave Road Suite 300 Austin, TX 78746 United States", "country": "United States", "iso": "US" }, "geometry": { "type": "Point", "coordinates": [ -97.786249617629906, 30.268573057170801 ] } },
{ "type": "Feature", "properties": { "office_name": "Dallas (World Headquarters)", "address": "1999 Bryan Street Suite 1200 Dallas, TX 75201 United States", "country": "United States", "iso": "US" }, "geometry": { "type": "Point", "coordinates": [ -96.797064029051498, 32.784713014394399 ] } },
{ "type": "Feature", "properties": { "office_name": "Fort Worth", "address": "777 Main Street Fort Worth, TX 76102 United States", "country": "United States", "iso": "US" }, "geometry": { "type": "Point", "coordinates": [ -97.329711009436195, 32.753163991846698 ] } },
{ "type": "Feature", "properties": { "office_name": "Houston", "address": "5985 Rogerdale Road Houston, TX 77072 United States", "country": "United States", "iso": "US" }, "geometry": { "type": "Point", "coordinates": [ -95.559476025197398, 29.713948010333802 ] } },
{ "type": "Feature", "properties": { "office_name": "Texas City", "address": "3401 Palmer Highway P.O. Box 401 Texas City, TX 77590 United States", "country": "United States", "iso": "US" }, "geometry": { "type": "Point", "coordinates": [ -94.947416966290902, 29.394486983956099 ] } },
{ "type": "Feature", "properties": { "office_name": "Holladay", "address": "6440 S Millrock Drive Suite 300 Holladay, UT 84121 United States", "country": "United States", "iso": "US" }, "geometry": { "type": "Point", "coordinates": [ -111.801477974188003, 40.633877008517203 ] } },
{ "type": "Feature", "properties": { "office_name": "Arlington", "address": "1100 North Glebe Road Suite 500 Arlington, VA 22201 United States", "country": "United States", "iso": "US" }, "geometry": { "type": "Point", "coordinates": [ -77.117989006041498, 38.883421010749103 ] } },
{ "type": "Feature", "properties": { "office_name": "Hampton (NASA)", "address": "9A Langley Boulevard Mail Stop 440 NASA Langley Research Center Hampton, VA 23681 United States", "country": "United States", "iso": "US" }, "geometry": { "type": "Point", "coordinates": [ -76.382619997664605, 37.092361984351797 ] } },
{ "type": "Feature", "properties": { "office_name": "Herndon", "address": "2551 Dulles View Drive Suite 700 Herndon, VA 20171 United States", "country": "United States", "iso": "US" }, "geometry": { "type": "Point", "coordinates": [ -77.428073993617701, 38.949570990609701 ] } },
{ "type": "Feature", "properties": { "office_name": "Reston", "address": "11091 Sunset Hills Road Suite 777 Reston, VA 20190 United States", "country": "United States", "iso": "US" }, "geometry": { "type": "Point", "coordinates": [ -77.327704977862396, 38.9459959831769 ] } },
{ "type": "Feature", "properties": { "office_name": "Richmond", "address": "Interstate Center 2108 W. Laburnum Avenue Suite 100 Richmond, VA 23227 United States", "country": "United States", "iso": "US" }, "geometry": { "type": "Point", "coordinates": [ -77.472378973603398, 37.585339009568699 ] } },
{ "type": "Feature", "properties": { "office_name": "Bellevue", "address": "1100 112th Avenue NE Suite 500 Bellevue, WA 98004 United States", "country": "United States", "iso": "US" }, "geometry": { "type": "Point", "coordinates": [ -122.190100970767006, 47.619913014406301 ] } },
{ "type": "Feature", "properties": { "office_name": "Spokane", "address": "999 W. Riverside Avenue Suite 500 Spokane, WA 99201 United States", "country": "United States", "iso": "US" }, "geometry": { "type": "Point", "coordinates": [ -117.426315116428995, 47.657704668891498 ] } },
{ "type": "Feature", "properties": { "office_name": "Washington, D.C.", "address": "601 New Jersey Ave NW Suite 450 Washington, D.C. 20001 United States", "country": "United States", "iso": "US" }, "geometry": { "type": "Point", "coordinates": [ -77.011535399133095, 38.8978601381638 ] } },
{ "type": "Feature", "properties": { "office_name": "Appleton", "address": "5 Innovation Court Suite A Appleton, WI 54914 United States", "country": "United States", "iso": "US" }, "geometry": { "type": "Point", "coordinates": [ -88.4554450346415, 44.278113010468999 ] } },
{ "type": "Feature", "properties": { "office_name": "Huntsville", "address": "620 Discovery Drive Building #2, Suite 130 Huntsville, AL 35806 United States", "country": "United States", "iso": "US" }, "geometry": { "type": "Point", "coordinates": [ -86.675454018020702, 34.730370000344898 ] } },
{ "type": "Feature", "properties": { "office_name": "Montgomery", "address": "4121 Carmichael Road Suite 400 Montgomery, AL 36106 United States", "country": "United States", "iso": "US" }, "geometry": { "type": "Point", "coordinates": [ -86.241817011610493, 32.357823984864098 ] } },
{ "type": "Feature", "properties": { "office_name": "Prudhoe Bay#", "address": "1 Spine Road Pouch 340050 Prudhoe Bay, AK 99734 United States", "country": "United States", "iso": "US" }, "geometry": { "type": "Point", "coordinates": [ -148.569789593943, 70.244813837148399 ] } },
{ "type": "Feature", "properties": { "office_name": "Sierra Vista", "address": "665 North Garden Avenue Suite 250 Sierra Vista, AZ 85635 United States", "country": "United States", "iso": "US" }, "geometry": { "type": "Point", "coordinates": [ -110.307270963818993, 31.560693006758001 ] } },
{ "type": "Feature", "properties": { "office_name": "Edwards AFB8 Draco Drive", "address": "Building 8350 Edwards AFB, CA 93524 United States", "country": "United States", "iso": "US" }, "geometry": { "type": "Point", "coordinates": [ -117.8981, 34.92292 ] } },
{ "type": "Feature", "properties": { "office_name": "Livermore", "address": "Lawrence Livermore National Laboratory National Ignition Facility 4435 First Street, PMB 338 Livermore, CA 94550 United States", "country": "United States", "iso": "US" }, "geometry": { "type": "Point", "coordinates": [ -121.742437017029999, 37.696641002640398 ] } },
{ "type": "Feature", "properties": { "office_name": "McClellan", "address": "3237 Peacekeeper Way Suite 202 McClellan, CA 95652 United States", "country": "United States", "iso": "US" }, "geometry": { "type": "Point", "coordinates": [ -121.387351016229005, 38.661817740025803 ] } },
{ "type": "Feature", "properties": { "office_name": "Oakland", "address": "155 Grand Avenue Suite 800 Oakland, CA 94612 United States", "country": "United States", "iso": "US" }, "geometry": { "type": "Point", "coordinates": [ -122.263894994866007, 37.810751017094901 ] } },
{ "type": "Feature", "properties": { "office_name": "Pasadena", "address": "155 North Lake Avenue Pasadena, CA 91101 United States", "country": "United States", "iso": "US" }, "geometry": { "type": "Point", "coordinates": [ -118.133492012570002, 34.148540987702297 ] } },
{ "type": "Feature", "properties": { "office_name": "Ridgecrest", "address": "Naval Systems Group 1550 North Norma Street Ridgecrest, CA 93555 United States", "country": "United States", "iso": "US" }, "geometry": { "type": "Point", "coordinates": [ -117.678228019586996, 35.649489017971497 ] } },
{ "type": "Feature", "properties": { "office_name": "Sacramento", "address": "2485 Natomas Park Drive Suite 600 Sacramento, CA 95833 United States", "country": "United States", "iso": "US" }, "geometry": { "type": "Point", "coordinates": [ -121.506780898900004, 38.609080984540803 ] } },
{ "type": "Feature", "properties": { "office_name": "San Diego", "address": "402 W. Broadway Suite 1450 San Diego, CA 92101 United States", "country": "United States", "iso": "US" }, "geometry": { "type": "Point", "coordinates": [ -117.166940978339994, 32.716252018099802 ] } },
{ "type": "Feature", "properties": { "office_name": "San Jose", "address": "1737 North First Street Suite 300 San Jose, CA 94105 United States", "country": "United States", "iso": "US" }, "geometry": { "type": "Point", "coordinates": [ -121.915800004226995, 37.368935997304 ] } },
{ "type": "Feature", "properties": { "office_name": "Denver", "address": "717 17th Street Suite 2750 Denver, CO 80202 United States", "country": "United States", "iso": "US" }, "geometry": { "type": "Point", "coordinates": [ -104.991239982186997, 39.746883981743302 ] } },
{ "type": "Feature", "properties": { "office_name": "Loveland", "address": "2725 Rocky Mountain Ave. Suite 330 Loveland, CO 80538 United States", "country": "United States", "iso": "US" }, "geometry": { "type": "Point", "coordinates": [ -105.001761030872004, 40.419605011315802 ] } },
{ "type": "Feature", "properties": { "office_name": "Fort Lauderdale", "address": "550 W Cypress Creek Road Suite 400 Fort Lauderdale, FL 33309 United States", "country": "United States", "iso": "US" }, "geometry": { "type": "Point", "coordinates": [ -80.152125542324498, 26.203129195688899 ] } },
{ "type": "Feature", "properties": { "office_name": "Fort Walton Beach", "address": "1030 Titan Court Fort Walton Beach, FL 32547 United States", "country": "United States", "iso": "US" }, "geometry": { "type": "Point", "coordinates": [ -86.633551040027996, 30.451179016591599 ] } },
{ "type": "Feature", "properties": { "office_name": "Jacksonville", "address": "245 Riverside Avenue Suite 300 Jacksonville, FL 32202 United States", "country": "United States", "iso": "US" }, "geometry": { "type": "Point", "coordinates": [ -81.672021002356004, 30.321010993943101 ] } },
{ "type": "Feature", "properties": { "office_name": "Miami", "address": "3150 SW 38 Avenue Suite 700 Miami, FL 33146 United States", "country": "United States", "iso": "US" }, "geometry": { "type": "Point", "coordinates": [ -80.256186965972304, 25.732476988682699 ] } },
{ "type": "Feature", "properties": { "office_name": "Oldsmar", "address": "700 Brooker Creek Boulevard Suite 1400 Oldsmar, FL 34677 United States", "country": "United States", "iso": "US" }, "geometry": { "type": "Point", "coordinates": [ -82.656046041593001, 28.0554329827686 ] } },
{ "type": "Feature", "properties": { "office_name": "Orlando", "address": "200 S. Orange Avenue Suite 900 Orlando, FL 32801 United States", "country": "United States", "iso": "US" }, "geometry": { "type": "Point", "coordinates": [ -81.379251015083497, 28.5399910148885 ] } },
{ "type": "Feature", "properties": { "office_name": "Pensacola", "address": "25 W. Cedar Street Suite 350 Pensacola, FL 32502 United States", "country": "United States", "iso": "US" }, "geometry": { "type": "Point", "coordinates": [ -87.215252019099495, 30.406979019943201 ] } },
{ "type": "Feature", "properties": { "office_name": "Atlanta", "address": "10 10th Street Suite 1400 Atlanta, GA 30309 United States", "country": "United States", "iso": "US" }, "geometry": { "type": "Point", "coordinates": [ -84.387136029259807, 33.7818100088191 ] } },
{ "type": "Feature", "properties": { "office_name": "Pooler", "address": "1000 Towne Center Boulevard Building 800 Suite 806 Pooler, GA 31322 United States", "country": "United States", "iso": "US" }, "geometry": { "type": "Point", "coordinates": [ -81.255482994604606, 32.142534005522101 ] } },
{ "type": "Feature", "properties": { "office_name": "Chicago", "address": "8735 West Higgins Road Suite 400 Chicago, IL 60631 United States", "country": "United States", "iso": "US" }, "geometry": { "type": "Point", "coordinates": [ -87.845049029143993, 41.985463002689897 ] } },
{ "type": "Feature", "properties": { "office_name": "Indianapolis", "address": "The Landmark Center 1099 N. Meridian Street Suite 500 Indianapolis, IN 46204 United States", "country": "United States", "iso": "US" }, "geometry": { "type": "Point", "coordinates": [ -86.1566319810956, 39.781794985654699 ] } },
{ "type": "Feature", "properties": { "office_name": "Wichita", "address": "245 N. Waco Street Suite 240 Wichita, KS 67202 United States", "country": "United States", "iso": "US" }, "geometry": { "type": "Point", "coordinates": [ -97.343724964812296, 37.689288983908199 ] } },
{ "type": "Feature", "properties": { "office_name": "New Orleans", "address": "1555 Poydras Street Suite 1625 New Orleans, LA 70112 United States", "country": "United States", "iso": "US" }, "geometry": { "type": "Point", "coordinates": [ -90.079160998612295, 29.9529149802182 ] } },
{ "type": "Feature", "properties": { "office_name": "Aberdeen Proving Ground", "address": "ATC Building 402 Room 200 Via Rickets Road P.O. Box 567 Aberdeen Proving Ground, MD 21005 United States", "country": "United States", "iso": "US" }, "geometry": { "type": "Point", "coordinates": [ -76.145354999999896, 39.49433 ] } },
{ "type": "Feature", "properties": { "office_name": "Baltimore", "address": "100 South Charles Street Tower Two, Suite 1000 Baltimore, MD 21201 United States", "country": "United States", "iso": "US" }, "geometry": { "type": "Point", "coordinates": [ -76.615699015844498, 39.287123013887097 ] } },
{ "type": "Feature", "properties": { "office_name": "Columbia", "address": "6716 Alexander Bell Drive Suite 210 Columbia, MD 21046 United States", "country": "United States", "iso": "US" }, "geometry": { "type": "Point", "coordinates": [ -76.810289005194903, 39.188272002706398 ] } },
{ "type": "Feature", "properties": { "office_name": "Hanover", "address": "7880 Milestone Parkway Suite 100 Hanover, MD 21076 United States", "country": "United States", "iso": "US" }, "geometry": { "type": "Point", "coordinates": [ -76.7518320198878, 39.142771008956601 ] } },
{ "type": "Feature", "properties": { "office_name": "Severn", "address": "7763 Old Telegraph Road Severn, MD 21144 United States", "country": "United States", "iso": "US" }, "geometry": { "type": "Point", "coordinates": [ -76.683842966651497, 39.151468993700803 ] } },
{ "type": "Feature", "properties": { "office_name": "Bourne", "address": "6 Otis Park Drive Bourne, MA 02532 United States", "country": "United States", "iso": "US" }, "geometry": { "type": "Point", "coordinates": [ -70.586403277975705, 41.712087523989403 ] } },
{ "type": "Feature", "properties": { "office_name": "Bingham Farms", "address": "30800 Telegraph Road Suite 4900 Bingham Farms, MI 48025 United States", "country": "United States", "iso": "US" }, "geometry": { "type": "Point", "coordinates": [ -83.284896986226002, 42.5140030181566 ] } },
{ "type": "Feature", "properties": { "office_name": "St. Louis", "address": "One Financial Plaza 501 N. Broadway St. Louis, MO 63102 United States", "country": "United States", "iso": "US" }, "geometry": { "type": "Point", "coordinates": [ -90.188911962410899, 38.629716014782801 ] } },
{ "type": "Feature", "properties": { "office_name": "Las Vegas", "address": "250 Pilot Road Suite 160 Las Vegas, NV 89119 United States", "country": "United States", "iso": "US" }, "geometry": { "type": "Point", "coordinates": [ -115.160517960396007, 36.070680993642 ] } },
{ "type": "Feature", "properties": { "office_name": "Nashua", "address": "10 Tara Boulevard Suite 210 Nashua, NH 03062 United States", "country": "United States", "iso": "US" }, "geometry": { "type": "Point", "coordinates": [ -71.456122040495302, 42.7103799873546 ] } },
{ "type": "Feature", "properties": { "office_name": "Morristown", "address": "412 Mt. Kemble Avenue Downtown Building - First Floor Morristown, NJ 07960 United States", "country": "United States", "iso": "US" }, "geometry": { "type": "Point", "coordinates": [ -74.503400993767798, 40.7708210036023 ] } },
{ "type": "Feature", "properties": { "office_name": "Tarrytown", "address": "303 South Broadway Suite G20 Tarrytown, NY 10591 United States", "country": "United States", "iso": "US" }, "geometry": { "type": "Point", "coordinates": [ -73.863684839505595, 41.066387948145298 ] } },
{ "type": "Feature", "properties": { "office_name": "Charlotte", "address": "14120 Ballantyne Corporate Place Suite 200 Charlotte, NC 28277 United States", "country": "United States", "iso": "US" }, "geometry": { "type": "Point", "coordinates": [ -80.8578809634121, 35.059220015564598 ] } },
{ "type": "Feature", "properties": { "office_name": "Cincinnati", "address": "2 Crowne Point Suite 100 Cincinnati, OH 45241 United States", "country": "United States", "iso": "US" }, "geometry": { "type": "Point", "coordinates": [ -84.4389760049241, 39.265330987640297 ] } },
{ "type": "Feature", "properties": { "office_name": "Columbus", "address": "2 Easton Oval Suite 500 Columbus, OH 43219 United States", "country": "United States", "iso": "US" }, "geometry": { "type": "Point", "coordinates": [ -82.906215005976307, 40.046611996389302 ] } },
{ "type": "Feature", "properties": { "office_name": "Tulsa", "address": "401 S. Boston Avenue Suite 330 Tulsa, OK 74103 United States", "country": "United States", "iso": "US" }, "geometry": { "type": "Point", "coordinates": [ -95.988982010627595, 36.152744980600097 ] } },
{ "type": "Feature", "properties": { "office_name": "Corvallis", "address": "1100 NE Circle Boulevard Suite 300 Corvallis, OR 97330 United States", "country": "United States", "iso": "US" }, "geometry": { "type": "Point", "coordinates": [ -123.241270744738998, 44.588965767936301 ] } },
{ "type": "Feature", "properties": { "office_name": "King of Prussia", "address": "200 North Warner Road Suite 203 King of Prussia, PA 19406 United States", "country": "United States", "iso": "US" }, "geometry": { "type": "Point", "coordinates": [ -75.400160027388594, 40.084768012205501 ] } },
{ "type": "Feature", "properties": { "office_name": "Pittsburgh", "address": "400 Industry Drive Suite 100 Pittsburgh, PA 15275 United States", "country": "United States", "iso": "US" }, "geometry": { "type": "Point", "coordinates": [ -80.217445977133394, 40.471679009716802 ] } },
{ "type": "Feature", "properties": { "office_name": "Providence", "address": "166 Valley Street Building 6M Suite 101 Providence, RI 02909 United States", "country": "United States", "iso": "US" }, "geometry": { "type": "Point", "coordinates": [ -71.440835963674303, 41.820903989403 ] } },
{ "type": "Feature", "properties": { "office_name": "Greenville", "address": "1041 East Butler Road P.O. Box 5456 Greenville, SC 29607 United States", "country": "United States", "iso": "US" }, "geometry": { "type": "Point", "coordinates": [ -82.281272039879696, 34.811018996318303 ] } },
{ "type": "Feature", "properties": { "office_name": "Knoxville", "address": "2095 Lakeside Centre Way Suite 200 Knoxville, TN 37922 United States", "country": "United States", "iso": "US" }, "geometry": { "type": "Point", "coordinates": [ -84.064453963220302, 35.860704009356297 ] } },
{ "type": "Feature", "properties": { "office_name": "Oak Ridge", "address": "125 Broadway Avenue Oak Ridge, TN 37830 United States", "country": "United States", "iso": "US" }, "geometry": { "type": "Point", "coordinates": [ -84.238609040267093, 36.0295869950343 ] } },
{ "type": "Feature", "properties": { "office_name": "Austin", "address": "1515 S. Capital of Texas Highway Suite 305 Austin, TX 78746 United States", "country": "United States", "iso": "US" }, "geometry": { "type": "Point", "coordinates": [ -97.816744008016201, 30.2732040129011 ] } },
{ "type": "Feature", "properties": { "office_name": "Dallas", "address": "12750 Merit Drive Suite 1100 Dallas, TX 75251 United States", "country": "United States", "iso": "US" }, "geometry": { "type": "Point", "coordinates": [ -96.770049993307396, 32.922020993624798 ] } },
{ "type": "Feature", "properties": { "office_name": "El Paso", "address": "445 Executive Center Boulevard Suite 110 El Paso, TX 79902 United States", "country": "United States", "iso": "US" }, "geometry": { "type": "Point", "coordinates": [ -106.515528972501002, 31.795855011695899 ] } },
{ "type": "Feature", "properties": { "office_name": "Houston", "address": "2224 Bay Area Boulevard Suite 200 Houston, TX 77058 United States", "country": "United States", "iso": "US" }, "geometry": { "type": "Point", "coordinates": [ -95.1089789881878, 29.571209018850301 ] } },
{ "type": "Feature", "properties": { "office_name": "San Antonio", "address": "911 Central Parkway North Suite 200 San Antonio, TX 78232 United States", "country": "United States", "iso": "US" }, "geometry": { "type": "Point", "coordinates": [ -98.477737958765502, 29.571963012950501 ] } },
{ "type": "Feature", "properties": { "office_name": "Hampton (Manhattan Square)", "address": "Tidewater Operations Group 5 Manhattan Square Hampton, VA 23666 United States", "country": "United States", "iso": "US" }, "geometry": { "type": "Point", "coordinates": [ -76.399304008297307, 37.064504016686499 ] } },
{ "type": "Feature", "properties": { "office_name": "Herndon", "address": "2411 Dulles Corner Park Suite 500 Herndon, VA 20171 United States", "country": "United States", "iso": "US" }, "geometry": { "type": "Point", "coordinates": [ -77.424389979533998, 38.9573420206818 ] } },
{ "type": "Feature", "properties": { "office_name": "McLean", "address": "1501 Farm Credit Drive Suite 1900 McLean, VA 22102 United States", "country": "United States", "iso": "US" }, "geometry": { "type": "Point", "coordinates": [ -77.202077013068902, 38.931533009247602 ] } },
{ "type": "Feature", "properties": { "office_name": "Reston", "address": "11710 Plaza America Drive Suite 600 Reston, VA 20190 United States", "country": "United States", "iso": "US" }, "geometry": { "type": "Point", "coordinates": [ -77.350840958464303, 38.952287020605198 ] } },
{ "type": "Feature", "properties": { "office_name": "Virginia Beach", "address": "5701 Cleveland Street Suite 200 Virginia Beach, VA 23462 United States", "country": "United States", "iso": "US" }, "geometry": { "type": "Point", "coordinates": [ -76.177121967159707, 36.846837013422899 ] } },
{ "type": "Feature", "properties": { "office_name": "Richland", "address": "1835 Terminal Drive Suite 150 Richland, WA 99354 United States", "country": "United States", "iso": "US" }, "geometry": { "type": "Point", "coordinates": [ -119.303842987541003, 46.297932991896701 ] } },
{ "type": "Feature", "properties": { "office_name": "Yakima", "address": "302 North 3rd Street Suite 320 Yakima, WA 98901 United States", "country": "United States", "iso": "US" }, "geometry": { "type": "Point", "coordinates": [ -120.505706984784993, 46.607011019534902 ] } },
{ "type": "Feature", "properties": { "office_name": "Milwaukee", "address": "1610 North 2nd Street Suite 201 Milwaukee, WI 53212 United States", "country": "United States", "iso": "US" }, "geometry": { "type": "Point", "coordinates": [ -87.912355041090606, 43.051397005585699 ] } },
{ "type": "Feature", "properties": { "office_name": "Doha", "address": "18th Floor Al Reem Tower, West Bay P.O. Box 22798 DohaQatar", "country": "United States", "iso": "US" }, "geometry": { "type": "Point", "coordinates": [ -85.476030287238501, 30.306661062368899 ] } }
]
}
